District,Latitude,Longitude
Jhapa,26.5455,87.8942
Sunsari,26.6276,87.1822
Kathmandu,27.7103,85.3222
Gorkha,27.9842,84.6270
Kaski,28.2622,84.0167
Dhanusha,26.8350,86.0122
Rupandehi,27.5330,83.3789
Chitwan,27.5291,84.3542
Dadeldhura,29.2188,80.4994
Rolpa,28.3816,82.6483
Achham,29.0396,81.2519
Jumla,29.2889,82.3018
Rolpa,28.3816,82.6483
Khotang,27.1838,86.7819